CUSTOM.updateTime,CUSTOM.isPhoto,CUSTOM.isVideo,CUSTOM.hSpeed [m/s],CUSTOM.distance [m],CUSTOM.travelled [m],CUSTOM.hSpeed.running_max [m/s],CALC.hSpeed [m/s],CALC.distance [m],CALC.travelled [m],CALC.distance.running_max [m],CALC.height.running_max [m],OSD.latitude,OSD.longitude,OSD.height [m],OSD.altitude [m],OSD.xSpeed [m/s],OSD.ySpeed [m/s],OSD.zSpeed [m/s],OSD.pitch,OSD.roll,OSD.yaw,OSD.flycState,OSD.flycState.RAW,OSD.flycCommand,OSD.flycCommand.RAW,OSD.canIOCWork,OSD.groundOrSky,OSD.isMotorUp,OSD.isSwaveWork,OSD.goHomeStatus,OSD.goHomeStatus.RAW,OSD.isImuPreheated,OSD.isVisionUsed,OSD.voltageWarning,OSD.modeChannel,OSD.isGPSused,OSD.compassError,OSD.waveError,OSD.gpsLevel,OSD.batteryType,OSD.isAcceletorOverRange,OSD.isVibrating,OSD.isBarometerDeadInAir,OSD.isMotorBlocked,OSD.isNotEnoughForce,OSD.isPropellerCatapult,OSD.isGoHomeHeightModified,OSD.isOutOfLimit,OSD.gpsNum,OSD.flightAction,OSD.flightAction.RAW,OSD.motorStartFailedCause,OSD.motorStartFailedCause.RAW,OSD.nonGPSCause,OSD.nonGPSCause.RAW,OSD.isQuickSpin,OSD.battery,OSD.sWaveHeight [m],OSD.flyTime [s],OSD.motorRevolution,OSD.flycVersion,OSD.droneType,OSD.imuInitFailReason,OSD.imuInitFailReason.RAW,OSD.motorFailReason,OSD.motorFailReason.RAW,OSD.ctrlDevice,OSD.ctrlDevice.RAW,GIMBAL.pitch,GIMBAL.roll,GIMBAL.yaw,GIMBAL.mode,GIMBAL.mode.RAW,GIMBAL.rollAdjust,GIMBAL.pitchAdjust,GIMBAL.yawAngle,GIMBAL.isAutoCalibration,GIMBAL.autoCalibrationResult,GIMBAL.isPitchInLimit,GIMBAL.isRollInLimit,GIMBAL.isYawInLimit,GIMBAL.isTopPosition,GIMBAL.isStuck,GIMBAL.version,GIMBAL.isSingleClick,GIMBAL.isDoubleClick,GIMBAL.isTripleClick,GIMBAL.timeStamp,RC.aileron,RC.elevator,RC.throttle,RC.rudder,RC.gimbal,RC.goHome,RC.mode,RC.isWheelChanged,RC.wheelOffset,RC.wheelClick,RC.record,RC.shutter,RC.playback,RC.custom1,RC.custom2,RC.bandwidth,CENTER_BATTERY.relativeCapacity,CENTER_BATTERY.currentPV [V],CENTER_BATTERY.currentCapacity [mAh],CENTER_BATTERY.fullCapacity [mAh],CENTER_BATTERY.life,CENTER_BATTERY.loopNum,CENTER_BATTERY.errorType,CENTER_BATTERY.current [A],CENTER_BATTERY.voltageCell1 [V],CENTER_BATTERY.voltageCell2 [V],CENTER_BATTERY.voltageCell3 [V],CENTER_BATTERY.voltageCell4 [V],CENTER_BATTERY.voltageCell5 [V],CENTER_BATTERY.voltageCell6 [V],CENTER_BATTERY.serialNo,CENTER_BATTERY.productDate,CENTER_BATTERY.temperature [C],CENTER_BATTERY.connStatus,CENTER_BATTERY.totalStudyCycle,CENTER_BATTERY.lastStudyCycle,CENTER_BATTERY.isNeedStudy,CENTER_BATTERY.isBatteryOnCharge,SMART_BATTERY.usefulTime [s],SMART_BATTERY.goHomeTime [s],SMART_BATTERY.landTime [s],SMART_BATTERY.goHomeBattery,SMART_BATTERY.landBattery,SMART_BATTERY.safeFlyRadius,SMART_BATTERY.volumeConsume,SMART_BATTERY.status,SMART_BATTERY.status.RAW,SMART_BATTERY.goHomeStatus,SMART_BATTERY.goHomeStatus.RAW,SMART_BATTERY.goHomeCountdown,SMART_BATTERY.voltage [V],SMART_BATTERY.battery,SMART_BATTERY.lowWarning,SMART_BATTERY.lowWarningGoHome,SMART_BATTERY.seriousLowWarning,SMART_BATTERY.seriousLowWarningLanding,SMART_BATTERY.voltagePercent,DEFORM.isDeformProtected,DEFORM.isExceptionState,DEFORM.deformStatus,DEFORM.deformStatus.RAW,DEFORM.deformMode,DEFORM.deformMode.RAW,RC_GPS.startupTime,RC_GPS.latitude,RC_GPS.longitude,RC_GPS.xSpeed [m/s],RC_GPS.ySpeed [m/s],RC_GPS.gpsNum,RC_GPS.accuracy,RC_GPS.gpsStatus,CAMERA_INFO.connectState,CAMERA_INFO.usbState,CAMERA_INFO.timeSyncState,CAMERA_INFO.photoState,CAMERA_INFO.recordState,CAMERA_INFO.sensorState,CAMERA_INFO.sdCardInsertState,CAMERA_INFO.sdCardState,CAMERA_INFO.firmUpgradeState,CAMERA_INFO.firmErrorType,CAMERA_INFO.hotState,CAMERA_INFO.enabledPhoto,CAMERA_INFO.isStoring,CAMERA_INFO.isTimePhotoing,CAMERA_INFO.encryptStatus,CAMERA_INFO.mode,CAMERA_INFO.sdCardTotalSize,CAMERA_INFO.sdCardFreeSize,CAMERA_INFO.remainedShots,CAMERA_INFO.remainedTime,CAMERA_INFO.videoRecordTime,CAMERA_INFO.cameraType,CAMERA_INFO.version,MC_PARAM.failSafeAction,MC_PARAM.OAenabled,MC_PARAM.VPSenabled,MC_PARAM.rthOAenabled,HOME.latitude,HOME.longitude,HOME.height [m],HOME.isHomeRecord,HOME.goHomeMode,HOME.aircraftHeadDirection,HOME.isDynamicHomePointEnabled,HOME.isReachedLimitDistance,HOME.isReachedLimitHeight,HOME.isMultipleModeOpen,HOME.goHomeStatus,HOME.hasGoHome,HOME.compassCeleStatus,HOME.isCompassCeleing,HOME.isBeginnerMode,HOME.isIOCEnabled,HOME.iocMode,HOME.goHomeHeight [m],HOME.courseLockAngle,HOME.dataRecorderStatus,HOME.dataRecorderRemainCapacity,HOME.dataRecorderRemainTime,HOME.dataRecorderFileIndex,HOME.isFlycInSimulationMode,HOME.isFlycInNavigationMode,HOME.isWingBroken,HOME.isBigGale,HOME.isBigGaleWarning,HOME.isCompassInstallErr,HOME.isFanCurrentInAbnormalState,HOME.paddleState,HOME.heightLimitStatus,HOME.useAbsoluteHeight,HOME.motor1EscmState,HOME.motor2EscmState,HOME.motor3EscmState,HOME.motor4EscmState,HOME.motor5EscmState,HOME.motor6EscmState,HOME.motor7EscmState,HOME.motor8EscmState,HOME.forceLandingHeight [m],RECOVER.droneType,RECOVER.appType,RECOVER.appVersion,RECOVER.aircraftSnBytes,RECOVER.aircraftName,RECOVER.activeTimestamp,RECOVER.cameraSn,RECOVER.rcSn,RECOVER.batterySn,RECOVER.gimbalType,FIRMWARE.version,DETAILS.street,DETAILS.citypart,DETAILS.city,DETAILS.area,DETAILS.isFavorite,DETAILS.isNew,DETAILS.needUpload,DETAILS.recordLineCount,DETAILS.timestamp,DETAILS.latitude,DETAILS.longitude,DETAILS.totalDistance [m],DETAILS.totalTime [s],DETAILS.maxHeight [m],DETAILS.maxHorizontalSpeed [m/s],DETAILS.maxVerticalSpeed [m/s],DETAILS.photoNum,DETAILS.videoTime [s],DETAILS.takeOffAltitude [m],DETAILS.droneType,DETAILS.activeTimestamp,DETAILS.aircraftName,DETAILS.aircraftSnBytes,DETAILS.cameraSn,DETAILS.rcSn,DETAILS.batterySn,DETAILS.appType,DETAILS.appVersion,APP_GPS.latitude,APP_GPS.longitude,APP_GPS.accuracy,APP_TIP.tip,APP_WARN.warn,APP_SER_WARN.warn
2018/09/07 17:36:38.283,,,0,0,,0,0,0,,0,0,39.990277,-105.447021,0,2470.7,0,0,0,0.7,-0.1,-173.4,EngineStart,41,Other,0,False,Ground,True,False,Standby,0,True,False,0,P,True,False,False,5,Smart,False,False,False,False,False,False,False,False,12,RC_AssistantTakeoff,9,None,0,Already,0,False,0,0,0,1,28,Spark,MonitorError,0,,0,RC,0,0,0,-176.8,YawFollow,2,0,0,0,False,16,False,False,False,True,False,1,False,False,False,55524,,,,,,,,,,,,,,,,,,,,,100,3,,,,,,,,,47220,2018/08/21,,,,,,,,,,,,,,,,,,,,,,,,,,,,,,,,,,,,,,,,1,0,1,No,No,0,1,Normal,0,No,0,0,0,0,CheckSuccess,Record,31907,30438,10146,11068,0,FC1102,1,GoHome,True,False,True,,,,,,,,,,,,,,,,,,,,,,,,,,,,,,,,,,,,,,,,,,,Spark,Android,4.3.0,0BMUF8400101P0,kestrel bean,2018/09/06 22:04:04,,,0C0AF8LB3303GU,Timeout,,,,,,2,1,1,1008,2018/09/07 17:36:38.274,39.990277,-105.447021,14.84,100.7,4.3,0,1,0,8,2470.65,Spark,2018/09/06 22:04:04,kestrel bean,0BMUF8400101P0,,,0C0AF8LB3303GU,Android,4.3.0,,,,,,
2018/09/07 17:36:38.283,,,0,0,,0,0,0,0.01,0,0,39.990277,-105.447021,0,2470.7,0,0,0,0.7,-0.1,-173.4,EngineStart,41,Other,0,False,Ground,True,False,Standby,0,True,False,0,P,True,False,False,5,Smart,False,False,False,False,False,False,False,False,12,RC_AssistantTakeoff,9,None,0,Already,0,False,0,0,0.1,1,28,Spark,MonitorError,0,,0,RC,0,0,0,-177.1,YawFollow,2,0,0,0,False,16,False,False,False,True,False,1,False,False,False,55624,,,,,,,,,,,,,,,,,,,,,100,3,,,,,,,,,47220,2018/08/21,,,,,,,,,,,,,,,,,,,,,,,,,,,,,,,,,,,,,,,,1,0,1,No,No,0,1,Normal,0,No,0,0,0,0,CheckSuccess,Record,31907,30438,10146,11068,0,FC1102,1,GoHome,True,False,True,,,,,,,,,,,,,,,,,,,,,,,,,,,,,,,,,,,,,,,,,,,Spark,Android,4.3.0,0BMUF8400101P0,kestrel bean,2018/09/06 22:04:04,,,0C0AF8LB3303GU,Timeout,,,,,,2,1,1,1008,2018/09/07 17:36:38.274,39.990277,-105.447021,14.84,100.7,4.3,0,1,0,8,2470.65,Spark,2018/09/06 22:04:04,kestrel bean,0BMUF8400101P0,,,0C0AF8LB3303GU,Android,4.3.0,,,,,,
2018/09/07 17:36:38.381,,,0,0.01,,0,0,0,0.03,0,0,39.990277,-105.447021,0,2470.7,0,0,0,0.7,-0.1,-173.6,EngineStart,41,Other,0,False,Ground,True,False,Standby,0,True,False,0,P,True,False,False,5,Smart,False,False,False,False,False,False,False,False,12,RC_AssistantTakeoff,9,None,0,Already,0,False,0,0,0.2,1,28,Spark,MonitorError,0,,0,RC,0,0,0,-177.2,YawFollow,2,0,0,0,False,16,False,False,False,True,False,1,False,False,False,55724,,,,,,,,,,,,,,,,,,,,,100,3,,,,,,,,,47220,2018/08/21,,,,,,,0,0,0,0,0,0,1000.689,None,0,NonGoHome,0,0,12.613,91,30,False,10,True,0,,,,,,,,,,,,,,,1,0,1,No,No,0,1,Normal,0,No,0,0,0,0,CheckSuccess,Record,31907,30438,10146,11068,0,FC1102,1,GoHome,True,False,True,39.99028,-105.447004,2470.65,True,1,1,False,False,False,True,4,False,0,False,False,False,CourseLock,30,-302.7,0,0,0,17,False,False,False,False,False,False,False,Normal,NonLimit,False,MotorOff,MotorOff,MotorOff,MotorOff,NonConnect,NonConnect,NonConnect,NonConnect,3,Spark,Android,4.3.0,0BMUF8400101P0,kestrel bean,2018/09/06 22:04:04,,,0C0AF8LB3303GU,Timeout,,,,,,2,1,1,1008,2018/09/07 17:36:38.274,39.990277,-105.447021,14.84,100.7,4.3,0,1,0,8,2470.65,Spark,2018/09/06 22:04:04,kestrel bean,0BMUF8400101P0,,,0C0AF8LB3303GU,Android,4.3.0,,,,,,
2018/09/07 17:36:38.483,,,0,0.03,,0,0.13,1.5,0.04,1.5,0,39.990277,-105.447021,0,2470.7,0,0,0,0.7,-0.1,-173.7,EngineStart,41,Other,0,False,Ground,True,False,Standby,0,True,False,0,P,True,False,False,5,Smart,False,False,False,False,False,False,False,False,12,RC_AssistantTakeoff,9,None,0,Already,0,False,0,0,0.3,1,28,Spark,MonitorError,0,,0,RC,0,0,0,-177.4,YawFollow,2,0,0,0,False,16,False,False,False,True,False,1,False,False,False,55824,,,,,,,,,,,,,,,,,,,,,100,3,,,,,,,,,47220,2018/08/21,,,,,,,0,0,0,0,0,0,1000.689,None,0,NonGoHome,0,0,12.613,91,30,False,10,True,0,,,,,,,,,,,,,,,1,0,1,No,No,0,1,Normal,0,No,0,0,0,0,CheckSuccess,Record,31907,30438,10146,11068,0,FC1102,1,GoHome,True,False,True,39.99028,-105.447004,2470.65,True,1,1,False,False,False,True,4,False,0,False,False,False,CourseLock,30,-302.7,0,0,0,17,False,False,False,False,False,False,False,Normal,NonLimit,False,MotorOff,MotorOff,MotorOff,MotorOff,NonConnect,NonConnect,NonConnect,NonConnect,3,Spark,Android,4.3.0,0BMUF8400101P0,kestrel bean,2018/09/06 22:04:04,,,0C0AF8LB3303GU,Timeout,,,,,,2,1,1,1008,2018/09/07 17:36:38.274,39.990277,-105.447021,14.84,100.7,4.3,0,1,0,8,2470.65,Spark,2018/09/06 22:04:04,kestrel bean,0BMUF8400101P0,,,0C0AF8LB3303GU,Android,4.3.0,,,,,,
2018/09/07 17:36:38.585,,,0,0.04,,0,0.1,1.51,0.05,1.51,0,39.990277,-105.447021,0,2470.7,0,0,0,0.7,-0.1,-173.7,EngineStart,41,Other,0,False,Ground,True,False,Standby,0,True,False,0,P,True,False,False,5,Smart,False,False,False,False,False,False,False,False,12,RC_AssistantTakeoff,9,None,0,Already,0,False,0,0,0.4,1,28,Spark,MonitorError,0,,0,RC,0,0,0,-177.6,YawFollow,2,0,0,0,False,16,False,False,False,True,False,1,False,False,False,55924,,,,,,,,,,,,,,,,,,,,,100,3,,,,,,,,,47220,2018/08/21,,,,,,,0,0,0,0,0,0,1000.689,None,0,NonGoHome,0,0,12.613,91,30,False,10,True,0,,,,,,,,,,,,,,,1,0,1,No,No,0,1,Normal,0,No,0,0,0,0,CheckSuccess,Record,31907,30438,10146,11068,0,FC1102,1,GoHome,True,False,True,39.99028,-105.447004,2470.65,True,1,1,False,False,False,True,4,False,0,False,False,False,CourseLock,30,-302.7,0,0,0,17,False,False,False,False,False,False,False,Normal,NonLimit,False,MotorOff,MotorOff,MotorOff,MotorOff,NonConnect,NonConnect,NonConnect,NonConnect,3,Spark,Android,4.3.0,0BMUF8400101P0,kestrel bean,2018/09/06 22:04:04,,,0C0AF8LB3303GU,Timeout,,,,,,2,1,1,1008,2018/09/07 17:36:38.274,39.990277,-105.447021,14.84,100.7,4.3,0,1,0,8,2470.65,Spark,2018/09/06 22:04:04,kestrel bean,0BMUF8400101P0,,,0C0AF8LB3303GU,Android,4.3.0,,,,,,
2018/09/07 17:36:38.688,,,0,0.05,,0,0.11,1.53,0.06,1.53,0,39.990277,-105.447021,0,2470.7,0,0,0,0.7,-0.1,-173.8,EngineStart,41,Other,0,False,Ground,True,True,Standby,0,True,False,0,P,True,False,False,5,Smart,False,False,False,False,False,False,False,False,12,RC_AssistantTakeoff,9,None,0,Already,0,False,0,0,0.5,1,28,Spark,MonitorError,0,,0,RC,0,0,0,-177.8,YawFollow,2,0,0,0,False,16,False,False,False,True,False,1,False,False,False,56024,,,,,,,,,,,,,,,,,,,,,100,3,,,,,,,,,47220,2018/08/21,,,,,,,0,0,0,0,0,0,1000.689,None,0,NonGoHome,0,0,12.613,91,30,False,10,True,0,,,,,,,,,,,,,,,1,0,1,No,No,0,1,Normal,0,No,0,0,0,0,CheckSuccess,Record,31907,30438,10146,11068,0,FC1102,1,GoHome,True,False,True,39.99028,-105.447004,2470.65,True,1,1,False,False,False,True,4,False,0,False,False,False,CourseLock,30,-302.7,0,0,0,17,False,False,False,False,False,False,False,Normal,NonLimit,False,MotorOff,MotorOff,MotorOff,MotorOff,NonConnect,NonConnect,NonConnect,NonConnect,3,Spark,Android,4.3.0,0BMUF8400101P0,kestrel bean,2018/09/06 22:04:04,,,0C0AF8LB3303GU,Timeout,,,,,,2,1,1,1008,2018/09/07 17:36:38.274,39.990277,-105.447021,14.84,100.7,4.3,0,1,0,8,2470.65,Spark,2018/09/06 22:04:04,kestrel bean,0BMUF8400101P0,,,0C0AF8LB3303GU,Android,4.3.0,,,,,,
2018/09/07 17:36:38.790,,,0,0.06,,0,0.12,1.54,0.07,1.54,0,39.990277,-105.447022,0,2470.7,0,0,0,0.7,-0.1,-173.9,EngineStart,41,Other,0,False,Ground,True,True,Standby,0,True,False,0,P,True,False,False,5,Smart,False,False,False,False,False,False,False,False,12,RC_AssistantTakeoff,9,None,0,Already,0,False,0,0,0.6,1,28,Spark,MonitorError,0,,0,RC,0,0,0,-177.8,YawFollow,2,0,0,0,False,16,False,False,False,True,False,1,False,False,False,56124,,,,,,,,,,,,,,,,,,,,,100,3,,,,,,,,,47220,2018/08/21,,,,,,,0,0,0,0,0,0,1000.689,None,0,NonGoHome,0,0,12.613,91,30,False,10,True,0,,,,,,,,,,,,,,,1,0,1,No,No,0,1,Normal,0,No,0,0,0,0,CheckSuccess,Record,31907,30438,10146,11068,0,FC1102,1,GoHome,True,False,True,39.99028,-105.447004,2470.65,True,1,1,False,False,False,True,4,False,0,False,False,False,CourseLock,30,-302.7,0,0,0,17,False,False,False,False,False,False,False,Normal,NonLimit,False,MotorOff,MotorOff,MotorOff,MotorOff,NonConnect,NonConnect,NonConnect,NonConnect,3,Spark,Android,4.3.0,0BMUF8400101P0,kestrel bean,2018/09/06 22:04:04,,,0C0AF8LB3303GU,Timeout,,,,,,2,1,1,1008,2018/09/07 17:36:38.274,39.990277,-105.447021,14.84,100.7,4.3,0,1,0,8,2470.65,Spark,2018/09/06 22:04:04,kestrel bean,0BMUF8400101P0,,,0C0AF8LB3303GU,Android,4.3.0,,,,,,
2018/09/07 17:36:38.892,,,0,0.07,,0,0.12,1.55,0.09,1.55,0,39.990277,-105.447022,0,2470.7,0,0,0,0.7,-0.1,-174.1,EngineStart,41,Other,0,False,Ground,True,True,Standby,0,True,False,0,P,True,False,False,5,Smart,False,False,False,False,False,False,False,False,12,RC_AssistantTakeoff,9,None,0,Already,0,False,0,0,0.7,1,28,Spark,MonitorError,0,,0,RC,0,0,0,-177.9,YawFollow,2,0,0,0,False,16,False,False,False,True,False,1,False,False,False,56224,,,,,,,,,,,,,,,,,,,,,100,3,,,,,,,,,47220,2018/08/21,,,,,,,0,0,0,0,0,0,1000.689,None,0,NonGoHome,0,0,12.613,91,30,False,10,True,0,,,,,,,,,,,,,,,1,0,1,No,No,0,1,Normal,0,No,0,0,0,0,CheckSuccess,Record,31907,30438,10146,11068,0,FC1102,1,GoHome,True,False,True,39.99028,-105.447004,2470.65,True,1,1,False,False,False,True,4,False,0,False,False,False,CourseLock,30,-302.7,0,0,0,17,False,False,False,False,False,False,False,Normal,NonLimit,False,MotorOff,MotorOff,MotorOff,MotorOff,NonConnect,NonConnect,NonConnect,NonConnect,3,Spark,Android,4.3.0,0BMUF8400101P0,kestrel bean,2018/09/06 22:04:04,,,0C0AF8LB3303GU,Timeout,,,,,,2,1,1,1008,2018/09/07 17:36:38.274,39.990277,-105.447021,14.84,100.7,4.3,0,1,0,8,2470.65,Spark,2018/09/06 22:04:04,kestrel bean,0BMUF8400101P0,,,0C0AF8LB3303GU,Android,4.3.0,,,,,,
2018/09/07 17:36:38.994,,,0,0.09,,0,0.11,1.56,0.1,1.56,0,39.990277,-105.447022,0,2470.7,0,0,0,0.7,-0.1,-174.1,EngineStart,41,Other,0,False,Ground,True,True,Standby,0,True,False,0,P,True,False,False,5,Smart,False,False,False,False,False,False,False,False,12,RC_AssistantTakeoff,9,None,0,Already,0,False,0,0,0.8,1,28,Spark,MonitorError,0,,0,RC,0,0,0,-178,YawFollow,2,0,0,0,False,16,False,False,False,True,False,1,False,False,False,56323,,,,,,,,,,,,,,,,,,,,,100,3,,,,,,,,,47220,2018/08/21,,,,,,,0,0,0,0,0,0,1000.689,None,0,NonGoHome,0,0,12.613,91,30,False,10,True,0,,,,,,,,,,,,,,,1,0,1,No,No,0,1,Normal,0,No,0,0,0,0,CheckSuccess,Record,31907,30438,10146,11068,0,FC1102,1,GoHome,True,False,True,39.99028,-105.447004,2470.65,True,1,1,False,False,False,True,4,False,0,False,False,False,CourseLock,30,-302.7,0,0,0,17,False,False,False,False,False,False,False,Normal,NonLimit,False,MotorOff,MotorOff,MotorOff,MotorOff,NonConnect,NonConnect,NonConnect,NonConnect,3,Spark,Android,4.3.0,0BMUF8400101P0,kestrel bean,2018/09/06 22:04:04,,,0C0AF8LB3303GU,Timeout,,,,,,2,1,1,1008,2018/09/07 17:36:38.274,39.990277,-105.447021,14.84,100.7,4.3,0,1,0,8,2470.65,Spark,2018/09/06 22:04:04,kestrel bean,0BMUF8400101P0,,,0C0AF8LB3303GU,Android,4.3.0,,,,,,
2018/09/07 17:36:39.099,,,0,0.1,,0,0.13,1.57,0.11,1.57,0,39.990277,-105.447022,0,2470.7,0,0,0,0.7,-0.1,-174.2,EngineStart,41,Other,0,False,Ground,True,True,Standby,0,True,False,0,P,True,False,False,5,Smart,False,False,False,False,False,False,False,False,12,RC_AssistantTakeoff,9,None,0,Already,0,False,0,0,0.9,1,28,Spark,MonitorError,0,,0,RC,0,0,0,-178.1,YawFollow,2,0,0,0,False,16,False,False,False,True,False,1,False,False,False,56423,5576,-7258,-6121,-9106,0,0,P,False,0,0,0,0,0,0,0,0,,,,,100,3,,,,,,,,,47220,2018/08/21,,,,,,,0,0,0,0,0,0,1000.689,None,0,NonGoHome,0,0,12.613,91,30,False,10,True,0,,,,,,,,,,,,,,,1,0,1,No,No,0,1,Normal,0,No,0,0,0,0,CheckSuccess,Record,31907,30438,10146,11068,0,FC1102,1,GoHome,True,False,True,39.99028,-105.447004,2470.65,True,1,1,False,False,False,True,4,False,0,False,False,False,CourseLock,30,-302.7,0,0,0,17,False,False,False,False,False,False,False,Normal,NonLimit,False,MotorOff,MotorOff,MotorOff,MotorOff,NonConnect,NonConnect,NonConnect,NonConnect,3,Spark,Android,4.3.0,0BMUF8400101P0,kestrel bean,2018/09/06 22:04:04,,,0C0AF8LB3303GU,Timeout,,,,,,2,1,1,1008,2018/09/07 17:36:38.274,39.990277,-105.447021,14.84,100.7,4.3,0,1,0,8,2470.65,Spark,2018/09/06 22:04:04,kestrel bean,0BMUF8400101P0,,,0C0AF8LB3303GU,Android,4.3.0,,,,,,
2018/09/07 17:36:39.200,,,0,0.11,,0,0.13,1.59,0.12,1.59,0,39.990277,-105.447022,0,2470.7,0,0,0,0.7,-0.1,-174.2,EngineStart,41,Other,0,False,Ground,True,True,Standby,0,True,False,0,P,True,False,False,5,Smart,False,False,False,False,False,False,False,False,12,RC_AssistantTakeoff,9,None,0,Already,0,False,0,0,1,1,28,Spark,MonitorError,0,,0,RC,0,0,0,-178.2,YawFollow,2,0,0,0,False,16,False,False,False,True,False,1,False,False,False,56523,0,0,0,0,0,0,P,False,0,0,0,0,0,0,0,0,,,,,100,3,,,4.197,4.204,4.2,,,,47220,2018/08/21,,,,,,,0,0,0,0,0,0,1000.689,None,0,NonGoHome,0,0,12.613,91,30,False,10,True,0,,,,,,,,,,,,,,,1,0,1,No,No,0,1,Normal,0,No,0,0,0,0,CheckSuccess,Record,31907,30438,10146,11068,0,FC1102,1,GoHome,True,False,True,39.99028,-105.447004,2470.65,True,1,1,False,False,False,True,4,False,0,False,False,False,CourseLock,30,-302.7,0,0,0,17,False,False,False,False,False,False,False,Normal,NonLimit,False,MotorOff,MotorOff,MotorOff,MotorOff,NonConnect,NonConnect,NonConnect,NonConnect,3,Spark,Android,4.3.0,0BMUF8400101P0,kestrel bean,2018/09/06 22:04:04,,,0C0AF8LB3303GU,Timeout,,,,,,2,1,1,1008,2018/09/07 17:36:38.274,39.990277,-105.447021,14.84,100.7,4.3,0,1,0,8,2470.65,Spark,2018/09/06 22:04:04,kestrel bean,0BMUF8400101P0,,,0C0AF8LB3303GU,Android,4.3.0,,,,,,
2018/09/07 17:36:39.303,,,0,0.12,,0,0.13,1.6,0.14,1.6,0,39.990277,-105.447022,0,2470.7,0,0,0,0.7,-0.1,-174.4,EngineStart,41,Other,0,False,Ground,True,True,Standby,0,True,False,0,P,True,False,False,5,Smart,False,False,False,False,False,False,False,False,12,RC_AssistantTakeoff,9,None,0,Already,0,False,0,0,1.1,1,28,Spark,MonitorError,0,,0,RC,0,0,0,-177.2,YawFollow,2,0,0,0,False,16,False,False,False,True,False,1,False,False,False,56623,0,0,0,0,0,0,P,False,0,0,0,0,0,0,0,0,,,,,100,3,,,4.197,4.204,4.2,,,,47220,2018/08/21,,,,,,,0,0,0,0,0,0,1000.689,None,0,NonGoHome,0,0,12.613,91,30,False,10,True,0,,,,,,,,,,,,,,,1,0,1,No,No,0,1,Normal,0,No,0,0,0,0,CheckSuccess,Record,31907,30438,10146,11068,0,FC1102,1,GoHome,True,False,True,39.99028,-105.447004,2470.65,True,1,1,False,False,False,True,4,False,0,False,False,False,CourseLock,30,-302.7,0,0,0,17,False,False,False,False,False,False,False,Normal,NonLimit,False,MotorOff,MotorOff,MotorOff,MotorOff,NonConnect,NonConnect,NonConnect,NonConnect,3,Spark,Android,4.3.0,0BMUF8400101P0,kestrel bean,2018/09/06 22:04:04,,,0C0AF8LB3303GU,Timeout,,,,,,2,1,1,1008,2018/09/07 17:36:38.274,39.990277,-105.447021,14.84,100.7,4.3,0,1,0,8,2470.65,Spark,2018/09/06 22:04:04,kestrel bean,0BMUF8400101P0,,,0C0AF8LB3303GU,Android,4.3.0,,,,,,
2018/09/07 17:36:39.405,,,0,0.14,,0,0.12,1.61,0.15,1.61,0,39.990277,-105.447022,0,2470.7,0,0,0,0.7,-0.1,-174.4,EngineStart,41,Other,0,False,Ground,True,True,Standby,0,True,False,0,P,True,False,False,5,Smart,False,False,False,False,False,False,False,False,12,RC_AssistantTakeoff,9,None,0,Already,0,False,0,0,1.2,1,28,Spark,MonitorError,0,,0,RC,0,0,0,-176.7,YawFollow,2,0,0,0,False,16,False,False,False,True,False,1,False,False,False,56724,0,0,0,0,0,0,P,False,0,0,0,0,0,0,0,0,,,,,100,3,,,4.197,4.204,4.2,,,,47220,2018/08/21,,,,,,,0,0,0,0,0,0,1006.575,None,0,NonGoHome,0,0,12.588,90,30,False,10,True,0,,,,,,,,,,,,,,,1,0,1,No,No,0,1,Normal,0,No,0,0,0,0,CheckSuccess,Record,31907,30438,10146,11068,0,FC1102,1,GoHome,True,False,True,39.99028,-105.447004,2470.65,True,1,1,False,False,False,True,4,False,0,False,False,False,CourseLock,30,-302.7,0,0,0,17,False,False,False,False,False,False,False,Normal,NonLimit,False,MotorOff,MotorOff,MotorOff,MotorOff,NonConnect,NonConnect,NonConnect,NonConnect,3,Spark,Android,4.3.0,0BMUF8400101P0,kestrel bean,2018/09/06 22:04:04,,,0C0AF8LB3303GU,Timeout,,,,,,2,1,1,1008,2018/09/07 17:36:38.274,39.990277,-105.447021,14.84,100.7,4.3,0,1,0,8,2470.65,Spark,2018/09/06 22:04:04,kestrel bean,0BMUF8400101P0,,,0C0AF8LB3303GU,Android,4.3.0,,,,,,
2018/09/07 17:36:39.509,,,0,0.15,,0,0.12,1.62,0.16,1.62,0,39.990277,-105.447022,0,2470.7,0,0,0,0.7,-0.1,-174.5,EngineStart,41,Other,0,False,Ground,True,True,Standby,0,True,False,0,P,True,False,False,5,Smart,False,False,False,False,False,False,False,False,12,RC_AssistantTakeoff,9,None,0,Already,0,False,0,0,1.3,1,28,Spark,MonitorError,0,,0,RC,0,0,0,-176.4,YawFollow,2,0,0,0,False,16,False,False,False,True,False,1,False,False,False,56823,0,0,0,0,0,0,P,False,0,0,0,0,0,0,0,0,,,,,100,3,,,4.197,4.204,4.2,,,,47220,2018/08/21,,,,,,,0,0,0,0,0,0,1006.575,None,0,NonGoHome,0,0,12.588,90,30,False,10,True,0,,,,,,,,,,,,,,,1,0,1,No,No,0,1,Normal,0,No,0,0,0,0,CheckSuccess,Record,31907,30438,10146,11068,0,FC1102,1,GoHome,True,False,True,39.99028,-105.447004,2470.65,True,1,1,False,False,False,True,4,False,0,False,False,False,CourseLock,30,-302.7,0,0,0,17,False,False,False,False,False,False,False,Normal,NonLimit,False,MotorOff,MotorOff,MotorOff,MotorOff,NonConnect,NonConnect,NonConnect,NonConnect,3,Spark,Android,4.3.0,0BMUF8400101P0,kestrel bean,2018/09/06 22:04:04,,,0C0AF8LB3303GU,Timeout,,,,,,2,1,1,1008,2018/09/07 17:36:38.274,39.990277,-105.447021,14.84,100.7,4.3,0,1,0,8,2470.65,Spark,2018/09/06 22:04:04,kestrel bean,0BMUF8400101P0,,,0C0AF8LB3303GU,Android,4.3.0,,,,,,
2018/09/07 17:36:39.611,,,0,0.16,,0,0.12,1.63,0.17,1.63,0,39.990277,-105.447023,0,2470.7,0,0,0,0.7,-0.1,-174.7,EngineStart,41,Other,0,False,Ground,True,True,Standby,0,True,False,0,P,True,False,False,5,Smart,False,False,False,False,False,False,False,False,12,RC_AssistantTakeoff,9,None,0,Already,0,False,0,0,1.4,1,28,Spark,MonitorError,0,,0,RC,0,0,0,-176.3,YawFollow,2,0,0,0,False,16,False,False,False,True,False,1,False,False,False,56923,0,0,0,0,0,0,P,False,0,0,0,0,0,0,0,0,,,,,100,3,,,4.197,4.204,4.2,,,,47220,2018/08/21,,,,,,,0,0,0,0,0,0,1006.575,None,0,NonGoHome,0,0,12.588,90,30,False,10,True,0,,,,,,,,,,,,,,,1,0,1,No,No,0,1,Normal,0,No,0,0,0,0,CheckSuccess,Record,31907,30438,10146,11068,0,FC1102,1,GoHome,True,False,True,39.99028,-105.447004,2470.65,True,1,1,False,False,False,True,4,False,0,False,False,False,CourseLock,30,-302.7,0,0,0,17,False,False,False,False,False,False,False,Normal,NonLimit,False,MotorOff,MotorOff,MotorOff,MotorOff,NonConnect,NonConnect,NonConnect,NonConnect,3,Spark,Android,4.3.0,0BMUF8400101P0,kestrel bean,2018/09/06 22:04:04,,,0C0AF8LB3303GU,Timeout,,,,,,2,1,1,1008,2018/09/07 17:36:38.274,39.990277,-105.447021,14.84,100.7,4.3,0,1,0,8,2470.65,Spark,2018/09/06 22:04:04,kestrel bean,0BMUF8400101P0,,,0C0AF8LB3303GU,Android,4.3.0,,,,,,
2018/09/07 17:36:39.713,,,0,0.17,,0,0.12,1.65,0.19,1.65,0,39.990277,-105.447023,0,2470.7,0,0,0,0.7,-0.1,-174.8,AssistedTakeoff,10,Other,0,False,Ground,True,True,Standby,0,True,False,0,P,True,False,False,5,Smart,False,False,False,False,False,False,False,False,12,RC_AssistantTakeoff,9,None,0,Already,0,False,0,0,1.5,1,28,Spark,MonitorError,0,,0,RC,0,0,0,-176.2,YawFollow,2,0,0,0,False,16,False,False,False,True,False,1,False,False,False,57023,0,0,0,0,0,0,P,False,0,0,0,0,0,0,0,0,,,,,100,3,,,4.197,4.204,4.2,,,,47220,2018/08/21,,,,,,,0,0,0,0,0,0,1006.575,None,0,NonGoHome,0,0,12.588,90,30,False,10,True,0,,,,,,,,,,,,,,,1,0,1,No,No,0,1,Normal,0,No,0,0,0,0,CheckSuccess,Record,31907,30438,10146,11068,0,FC1102,1,GoHome,True,False,True,39.99028,-105.447004,2470.65,True,1,1,False,False,False,True,4,False,0,False,False,False,CourseLock,30,-302.7,0,0,0,17,False,False,False,False,False,False,False,Normal,NonLimit,False,MotorOff,MotorOff,MotorOff,MotorOff,NonConnect,NonConnect,NonConnect,NonConnect,3,Spark,Android,4.3.0,0BMUF8400101P0,kestrel bean,2018/09/06 22:04:04,,,0C0AF8LB3303GU,Timeout,,,,,,2,1,1,1008,2018/09/07 17:36:38.274,39.990277,-105.447021,14.84,100.7,4.3,0,1,0,8,2470.65,Spark,2018/09/06 22:04:04,kestrel bean,0BMUF8400101P0,,,0C0AF8LB3303GU,Android,4.3.0,,,,,,
2018/09/07 17:36:39.816,,,0,0.19,,0,0.11,1.66,0.2,1.66,0,39.990277,-105.447023,0,2470.7,0,0,0,0.6,-0.1,-174.9,AssistedTakeoff,10,Other,0,False,Ground,True,True,Standby,0,True,False,0,P,True,False,False,5,Smart,False,False,False,False,False,False,False,False,12,RC_AssistantTakeoff,9,None,0,Already,0,False,0,0,1.6,1,28,Spark,MonitorError,0,,0,RC,0,0,0,-176.2,YawFollow,2,0,0,0,False,16,False,False,False,True,False,1,False,False,False,57123,0,0,0,0,0,0,P,False,0,0,0,0,0,0,0,0,,,,,100,3,,,4.197,4.204,4.2,,,,47220,2018/08/21,,,,,,,0,0,0,0,0,0,1006.575,None,0,NonGoHome,0,0,12.588,90,30,False,10,True,0,,,,,,,,,,,,,,,1,0,1,No,No,0,1,Normal,0,No,0,0,0,0,CheckSuccess,Record,31907,30438,10146,11068,0,FC1102,1,GoHome,True,False,True,39.99028,-105.447004,2470.65,True,1,1,False,False,False,True,4,False,0,False,False,False,CourseLock,30,-302.7,0,0,0,17,False,False,False,False,False,False,False,Normal,NonLimit,False,MotorOff,MotorOff,MotorOff,MotorOff,NonConnect,NonConnect,NonConnect,NonConnect,3,Spark,Android,4.3.0,0BMUF8400101P0,kestrel bean,2018/09/06 22:04:04,,,0C0AF8LB3303GU,Timeout,,,,,,2,1,1,1008,2018/09/07 17:36:38.274,39.990277,-105.447021,14.84,100.7,4.3,0,1,0,8,2470.65,Spark,2018/09/06 22:04:04,kestrel bean,0BMUF8400101P0,,,0C0AF8LB3303GU,Android,4.3.0,,,,,,
2018/09/07 17:36:39.917,,,0,0.2,,0,0.1,1.67,0.21,1.67,0,39.990276,-105.447023,0,2470.7,0,0,0,0.7,-0.1,-175,AssistedTakeoff,10,Other,0,False,Ground,True,True,Standby,0,True,False,0,P,True,False,False,5,Smart,False,False,False,False,False,False,False,False,12,RC_AssistantTakeoff,9,None,0,Already,0,False,0,0,1.7,1,28,Spark,MonitorError,0,,0,RC,0,0,0,-176.1,YawFollow,2,0,0,0,False,16,False,False,False,True,False,1,False,False,False,57223,0,0,0,0,0,0,P,False,0,0,0,0,0,0,0,0,,,,,100,3,,,4.197,4.204,4.2,,,,47220,2018/08/21,,,,,,,0,0,0,0,0,0,1006.575,None,0,NonGoHome,0,0,12.588,90,30,False,10,True,0,,,,,,,,,,,,,,,1,0,1,No,No,0,1,Normal,0,No,0,0,0,0,CheckSuccess,Record,31907,30438,10146,11068,0,FC1102,1,GoHome,True,False,True,39.99028,-105.447004,2470.65,True,1,1,False,False,False,True,4,False,0,False,False,False,CourseLock,30,-302.7,0,0,0,17,False,False,False,False,False,False,False,Normal,NonLimit,False,MotorOff,MotorOff,MotorOff,MotorOff,NonConnect,NonConnect,NonConnect,NonConnect,3,Spark,Android,4.3.0,0BMUF8400101P0,kestrel bean,2018/09/06 22:04:04,,,0C0AF8LB3303GU,Timeout,,,,,,2,1,1,1008,2018/09/07 17:36:38.274,39.990277,-105.447021,14.84,100.7,4.3,0,1,0,8,2470.65,Spark,2018/09/06 22:04:04,kestrel bean,0BMUF8400101P0,,,0C0AF8LB3303GU,Android,4.3.0,,,,,,
2018/09/07 17:36:40.023,,,0,0.21,,0,0.11,1.68,0.22,1.68,0,39.990276,-105.447023,0,2470.7,0,0,0,0.7,-0.1,-175,AssistedTakeoff,10,Other,0,False,Ground,True,True,Standby,0,True,False,0,P,True,False,False,5,Smart,False,False,False,False,False,False,False,False,12,RC_AssistantTakeoff,9,None,0,Already,0,False,0,0,1.8,1,28,Spark,MonitorError,0,,0,RC,0,0,0,-176.1,YawFollow,2,0,0,0,False,16,False,False,False,True,False,1,False,False,False,57323,0,0,0,0,0,0,P,False,0,0,0,0,0,0,0,0,,,,,100,3,,,4.197,4.204,4.2,,,,47220,2018/08/21,,,,,,,0,0,0,0,0,0,1006.575,None,0,NonGoHome,0,0,12.588,90,30,False,10,True,0,,,,,,,,,,,,,,,1,0,1,No,No,0,1,Normal,0,No,0,0,0,0,CheckSuccess,Record,31907,30438,10146,11068,0,FC1102,1,GoHome,True,False,True,39.99028,-105.447004,2470.65,True,1,1,False,False,False,True,4,False,0,False,False,False,CourseLock,30,-302.7,0,0,0,17,False,False,False,False,False,False,False,Normal,NonLimit,False,MotorOff,MotorOff,MotorOff,MotorOff,NonConnect,NonConnect,NonConnect,NonConnect,3,Spark,Android,4.3.0,0BMUF8400101P0,kestrel bean,2018/09/06 22:04:04,,,0C0AF8LB3303GU,Timeout,,,,,,2,1,1,1008,2018/09/07 17:36:38.274,39.990277,-105.447021,14.84,100.7,4.3,0,1,0,8,2470.65,Spark,2018/09/06 22:04:04,kestrel bean,0BMUF8400101P0,,,0C0AF8LB3303GU,Android,4.3.0,,,,,,
2018/09/07 17:36:40.131,,,0,0.22,,0,0.09,1.68,0.23,1.68,0,39.990276,-105.447023,0,2470.7,0,0,0,0.7,-0.1,-175.1,AssistedTakeoff,10,Other,0,False,Ground,True,True,Standby,0,True,False,0,P,True,False,False,5,Smart,False,False,False,False,False,False,False,False,12,RC_AssistantTakeoff,9,None,0,Already,0,False,0,0,1.9,1,28,Spark,MonitorError,0,,0,RC,0,0,0,-176.1,YawFollow,2,0,0,0,False,16,False,False,False,True,False,1,False,False,False,57422,0,0,0,0,0,0,P,False,0,0,0,0,0,0,0,0,,,,,100,3,,,4.197,4.204,4.2,,,,47220,2018/08/21,,,,,,,0,0,0,0,0,0,1006.575,None,0,NonGoHome,0,0,12.588,90,30,False,10,True,0,,,,,,,,,,,,,,,1,0,1,No,No,0,1,Normal,0,No,0,0,0,0,CheckSuccess,Record,31907,30438,10146,11068,0,FC1102,1,GoHome,True,False,True,39.99028,-105.447004,2470.65,True,1,1,False,False,False,True,4,False,0,False,False,False,CourseLock,30,-302.7,0,0,0,17,False,False,False,False,False,False,False,Normal,NonLimit,False,MotorOff,MotorOff,MotorOff,MotorOff,NonConnect,NonConnect,NonConnect,NonConnect,3,Spark,Android,4.3.0,0BMUF8400101P0,kestrel bean,2018/09/06 22:04:04,,,0C0AF8LB3303GU,Timeout,,,,,,2,1,1,1008,2018/09/07 17:36:38.274,39.990277,-105.447021,14.84,100.7,4.3,0,1,0,8,2470.65,Spark,2018/09/06 22:04:04,kestrel bean,0BMUF8400101P0,,,0C0AF8LB3303GU,Android,4.3.0,,,,,,
2018/09/07 17:36:40.131,,,0,0.22,,0,0.1,1.69,0.24,1.69,0,39.990276,-105.447023,0,2470.7,0,0,0,0.7,-0.1,-175.2,AssistedTakeoff,10,Other,0,False,Ground,True,True,Standby,0,True,False,0,P,True,False,False,5,Smart,False,False,False,False,False,False,False,False,12,RC_AssistantTakeoff,9,None,0,Already,0,False,0,0,2,1,28,Spark,MonitorError,0,,0,RC,0,0,0,-176.1,YawFollow,2,0,0,0,False,16,False,False,False,True,False,1,False,False,False,57523,0,0,0,0,0,0,P,False,0,0,0,0,0,0,0,0,,,,,100,3,,,4.197,4.204,4.2,,,,47220,2018/08/21,,,,,,,0,0,0,0,0,0,1006.575,None,0,NonGoHome,0,0,12.588,90,30,False,10,True,0,,,,,,,,,,,,,,,1,0,1,No,No,0,1,Normal,0,No,0,0,0,0,CheckSuccess,Record,31907,30438,10146,11068,0,FC1102,1,GoHome,True,False,True,39.99028,-105.447004,2470.65,True,1,1,False,False,False,True,4,False,0,False,False,False,CourseLock,30,-302.7,0,0,0,17,False,False,False,False,False,False,False,Normal,NonLimit,False,MotorOff,MotorOff,MotorOff,MotorOff,NonConnect,NonConnect,NonConnect,NonConnect,3,Spark,Android,4.3.0,0BMUF8400101P0,kestrel bean,2018/09/06 22:04:04,,,0C0AF8LB3303GU,Timeout,,,,,,2,1,1,1008,2018/09/07 17:36:38.274,39.990277,-105.447021,14.84,100.7,4.3,0,1,0,8,2470.65,Spark,2018/09/06 22:04:04,kestrel bean,0BMUF8400101P0,,,0C0AF8LB3303GU,Android,4.3.0,,,,,,
2018/09/07 17:36:40.233,,,0,0.24,,0,0,1.7,0.25,1.7,0,39.990276,-105.447023,0,2470.7,0,0,0,0.7,-0.1,-175.2,AssistedTakeoff,10,Other,0,False,Ground,True,True,Standby,0,True,False,0,P,True,False,False,5,Smart,False,False,False,False,False,False,False,False,12,RC_AssistantTakeoff,9,None,0,Already,0,False,0,0,2.1,1,28,Spark,MonitorError,0,,0,RC,0,0,0,-176.1,YawFollow,2,0,0,0,False,16,False,False,False,True,False,1,False,False,False,57623,0,0,6333,0,0,0,P,False,0,0,0,0,0,0,0,0,,,,,100,3,,,4.189,4.197,4.191,,,,47220,2018/08/21,,,,,,,0,0,0,0,0,0,1006.575,None,0,NonGoHome,0,0,12.588,90,30,False,10,True,0,,,,,,,,,,,,,,,1,0,1,No,No,0,1,Normal,0,No,0,0,0,0,CheckSuccess,Record,31907,30438,10146,11068,0,FC1102,1,GoHome,True,False,True,39.99028,-105.447004,2470.65,True,1,1,False,False,False,True,4,False,0,False,False,False,CourseLock,30,-302.7,0,0,0,17,False,False,False,False,False,False,False,Normal,NonLimit,False,MotorOff,MotorOff,MotorOff,MotorOff,NonConnect,NonConnect,NonConnect,NonConnect,3,Spark,Android,4.3.0,0BMUF8400101P0,kestrel bean,2018/09/06 22:04:04,,,0C0AF8LB3303GU,Timeout,,,,,,2,1,1,1008,2018/09/07 17:36:38.274,39.990277,-105.447021,14.84,100.7,4.3,0,1,0,8,2470.65,Spark,2018/09/06 22:04:04,kestrel bean,0BMUF8400101P0,,,0C0AF8LB3303GU,Android,4.3.0,,,,,,
2018/09/07 17:36:40.335,,,0,0.25,,0,0.1,1.71,0.26,1.71,0,39.990276,-105.447023,0,2470.7,0,0,0,0.7,-0.1,-175.2,AssistedTakeoff,10,Other,0,False,Ground,True,True,Standby,0,True,False,0,P,True,False,False,5,Smart,False,False,False,False,False,False,False,False,12,RC_AssistantTakeoff,9,None,0,Already,0,False,0,0,2.2,1,28,Spark,MonitorError,0,,0,RC,0,0,0,-176,YawFollow,2,0,0,0,False,16,False,False,False,True,False,1,False,False,False,57723,0,0,10000,0,0,0,P,False,0,0,0,0,0,0,0,0,,,,,100,3,,,4.189,4.197,4.191,,,,47220,2018/08/21,,,,,,,0,0,0,0,0,0,1041.534,None,0,NonGoHome,0,0,12.592,90,30,False,10,True,0,,,,,,,,,,,,,,,1,0,1,No,No,0,1,Normal,0,No,0,0,0,0,CheckSuccess,Record,31907,30438,10146,11068,0,FC1102,1,GoHome,True,False,True,39.99028,-105.447004,2470.65,True,1,1,False,False,False,True,4,False,0,False,False,False,CourseLock,30,-302.7,0,0,0,17,False,False,False,False,False,False,False,Normal,NonLimit,False,MotorOff,MotorOff,MotorOff,MotorOff,NonConnect,NonConnect,NonConnect,NonConnect,3,Spark,Android,4.3.0,0BMUF8400101P0,kestrel bean,2018/09/06 22:04:04,,,0C0AF8LB3303GU,Timeout,,,,,,2,1,1,1008,2018/09/07 17:36:38.274,39.990277,-105.447021,14.84,100.7,4.3,0,1,0,8,2470.65,Spark,2018/09/06 22:04:04,kestrel bean,0BMUF8400101P0,,,0C0AF8LB3303GU,Android,4.3.0,,,,,,
2018/09/07 17:36:40.437,,,0,0.25,,0,0.08,1.72,0.27,1.72,0,39.990276,-105.447023,0,2470.7,0,0,0,0.7,-0.1,-175.4,AssistedTakeoff,10,Other,0,False,Ground,True,True,Standby,0,True,False,0,P,True,False,False,5,Smart,False,False,False,False,False,False,False,False,12,RC_AssistantTakeoff,9,None,0,Already,0,False,0,0,2.3,1,28,Spark,MonitorError,0,,0,RC,0,0,0,-176.1,YawFollow,2,0,0,0,False,16,False,False,False,True,False,1,False,False,False,57824,0,0,10000,0,0,0,P,False,0,0,0,0,0,0,0,0,,,,,100,3,,,4.189,4.197,4.191,,,,47220,2018/08/21,,,,,,,0,0,0,0,0,0,1041.534,None,0,NonGoHome,0,0,12.592,90,30,False,10,True,0,,,,,,,,,,,,,,,1,0,1,No,No,0,1,Normal,0,No,0,0,0,0,CheckSuccess,Record,31907,30438,10146,11068,0,FC1102,1,GoHome,True,False,True,39.99028,-105.447004,2470.65,True,1,1,False,False,False,True,4,False,0,False,False,False,CourseLock,30,-302.7,0,0,0,17,False,False,False,False,False,False,False,Normal,NonLimit,False,MotorOff,MotorOff,MotorOff,MotorOff,NonConnect,NonConnect,NonConnect,NonConnect,3,Spark,Android,4.3.0,0BMUF8400101P0,kestrel bean,2018/09/06 22:04:04,,,0C0AF8LB3303GU,Timeout,,,,,,2,1,1,1008,2018/09/07 17:36:38.274,39.990277,-105.447021,14.84,100.7,4.3,0,1,0,8,2470.65,Spark,2018/09/06 22:04:04,kestrel bean,0BMUF8400101P0,,,0C0AF8LB3303GU,Android,4.3.0,,,,,,
2018/09/07 17:36:40.539,,,0,0.26,,0,0.08,1.73,0.28,1.73,0,39.990276,-105.447024,0,2470.7,0,0,0,0.7,-0.1,-175.4,AssistedTakeoff,10,Other,0,False,Ground,True,True,Standby,0,True,False,0,P,True,False,False,5,Smart,False,False,False,False,False,False,False,False,12,RC_AssistantTakeoff,9,None,0,Already,0,False,0,0,2.4,1,28,Spark,MonitorError,0,,0,RC,0,0,0,-176.1,YawFollow,2,0,0,0,False,16,False,False,False,True,False,1,False,False,False,57924,0,0,10000,0,0,0,P,False,0,0,0,0,0,0,0,0,,,,,100,3,,,4.189,4.197,4.191,,,,47220,2018/08/21,,,,,,,0,0,0,0,0,0,1041.534,None,0,NonGoHome,0,0,12.592,90,30,False,10,True,0,,,,,,,,,,,,,,,1,0,1,No,No,0,1,Normal,0,No,0,0,0,0,CheckSuccess,Record,31907,30438,10146,11068,0,FC1102,1,GoHome,True,False,True,39.99028,-105.447004,2470.65,True,1,1,False,False,False,True,4,False,0,False,False,False,CourseLock,30,-302.7,0,0,0,17,False,False,False,False,False,False,False,Normal,NonLimit,False,MotorOff,MotorOff,MotorOff,MotorOff,NonConnect,NonConnect,NonConnect,NonConnect,3,Spark,Android,4.3.0,0BMUF8400101P0,kestrel bean,2018/09/06 22:04:04,,,0C0AF8LB3303GU,Timeout,,,,,,2,1,1,1008,2018/09/07 17:36:38.274,39.990277,-105.447021,14.84,100.7,4.3,0,1,0,8,2470.65,Spark,2018/09/06 22:04:04,kestrel bean,0BMUF8400101P0,,,0C0AF8LB3303GU,Android,4.3.0,,,,,,
2018/09/07 17:36:40.641,,,0,0.27,,0,0.07,1.74,0.28,1.74,0,39.990276,-105.447024,0,2470.7,0,0,0,0.7,-0.1,-175.5,AssistedTakeoff,10,Other,0,False,Ground,True,True,Standby,0,True,False,0,P,True,False,False,5,Smart,False,False,False,False,False,False,False,False,12,RC_AssistantTakeoff,9,None,0,Already,0,False,0,0,2.5,1,28,Spark,MonitorError,0,,0,RC,0,0,0,-176.1,YawFollow,2,0,0,0,False,16,False,False,False,True,False,1,False,False,False,58024,0,0,9727,0,0,0,P,False,0,0,0,0,0,0,0,0,,,,,100,3,,,4.189,4.197,4.191,,,,47220,2018/08/21,,,,,,,0,0,0,0,0,0,1041.534,None,0,NonGoHome,0,0,12.592,90,30,False,10,True,0,,,,,,,,,,,,,,,1,0,1,No,No,0,1,Normal,0,No,0,0,0,0,CheckSuccess,Record,31907,30438,10146,11068,0,FC1102,1,GoHome,True,False,True,39.99028,-105.447004,2470.65,True,1,1,False,False,False,True,4,False,0,False,False,False,CourseLock,30,-302.7,0,0,0,17,False,False,False,False,False,False,False,Normal,NonLimit,False,MotorOff,MotorOff,MotorOff,MotorOff,NonConnect,NonConnect,NonConnect,NonConnect,3,Spark,Android,4.3.0,0BMUF8400101P0,kestrel bean,2018/09/06 22:04:04,,,0C0AF8LB3303GU,Timeout,,,,,,2,1,1,1008,2018/09/07 17:36:38.274,39.990277,-105.447021,14.84,100.7,4.3,0,1,0,8,2470.65,Spark,2018/09/06 22:04:04,kestrel bean,0BMUF8400101P0,,,0C0AF8LB3303GU,Android,4.3.0,,,,,,
2018/09/07 17:36:40.743,,,0,0.28,,0,0.08,1.74,0.29,1.74,0,39.990276,-105.447024,0,2470.7,0,0,0,0.7,-0.1,-175.5,AssistedTakeoff,10,Other,0,False,Ground,True,True,Standby,0,True,False,0,P,True,False,False,5,Smart,False,False,False,False,False,False,False,False,12,RC_AssistantTakeoff,9,None,0,Already,0,False,0,0,2.6,1,28,Spark,MonitorError,0,,0,RC,0,0,0,-176.1,YawFollow,2,0,0,0,False,16,False,False,False,True,False,1,False,False,False,58124,0,0,9348,0,0,0,P,False,0,0,0,0,0,0,0,0,,,,,100,3,,,4.189,4.197,4.191,,,,47220,2018/08/21,,,,,,,0,0,0,0,0,0,1041.534,None,0,NonGoHome,0,0,12.592,90,30,False,10,True,0,,,,,,,,,,,,,,,1,0,1,No,No,0,1,Normal,0,No,0,0,0,0,CheckSuccess,Record,31907,30438,10146,11068,0,FC1102,1,GoHome,True,False,True,39.99028,-105.447004,2470.65,True,1,1,False,False,False,True,4,False,0,False,False,False,CourseLock,30,-302.7,0,0,0,17,False,False,False,False,False,False,False,Normal,NonLimit,False,MotorOff,MotorOff,MotorOff,MotorOff,NonConnect,NonConnect,NonConnect,NonConnect,3,Spark,Android,4.3.0,0BMUF8400101P0,kestrel bean,2018/09/06 22:04:04,,,0C0AF8LB3303GU,Timeout,,,,,,2,1,1,1008,2018/09/07 17:36:38.274,39.990277,-105.447021,14.84,100.7,4.3,0,1,0,8,2470.65,Spark,2018/09/06 22:04:04,kestrel bean,0BMUF8400101P0,,,0C0AF8LB3303GU,Android,4.3.0,,,,,,
2018/09/07 17:36:40.847,,,0,0.29,,0,0.08,1.75,0.3,1.75,0,39.990276,-105.447024,0,2470.7,0,0,0,0.6,-0.1,-175.6,AssistedTakeoff,10,Other,0,False,Ground,True,True,Standby,0,True,False,0,P,True,False,False,5,Smart,False,False,False,False,False,False,False,False,12,RC_AssistantTakeoff,9,None,0,Already,0,False,0,0,2.7,1,28,Spark,MonitorError,0,,0,RC,0,0,0,-176.1,YawFollow,2,0,0,0,False,16,False,False,False,True,False,1,False,False,False,58224,0,0,9348,0,0,0,P,False,0,0,0,0,0,0,0,0,,,,,100,3,,,4.189,4.197,4.191,,,,47220,2018/08/21,,,,,,,0,0,0,0,0,0,1041.534,None,0,NonGoHome,0,0,12.592,90,30,False,10,True,0,,,,,,,,,,,,,,,1,0,1,No,No,0,1,Normal,0,No,0,0,0,0,CheckSuccess,Record,31907,30438,10146,11068,0,FC1102,1,GoHome,True,False,True,39.99028,-105.447004,2470.65,True,1,1,False,False,False,True,4,False,0,False,False,False,CourseLock,30,-302.7,0,0,0,17,False,False,False,False,False,False,False,Normal,NonLimit,False,MotorOff,MotorOff,MotorOff,MotorOff,NonConnect,NonConnect,NonConnect,NonConnect,3,Spark,Android,4.3.0,0BMUF8400101P0,kestrel bean,2018/09/06 22:04:04,,,0C0AF8LB3303GU,Timeout,,,,,,2,1,1,1008,2018/09/07 17:36:38.274,39.990277,-105.447021,14.84,100.7,4.3,0,1,0,8,2470.65,Spark,2018/09/06 22:04:04,kestrel bean,0BMUF8400101P0,,,0C0AF8LB3303GU,Android,4.3.0,,,,,,
2018/09/07 17:36:40.950,,,0,0.3,,0,0.09,1.76,0.31,1.76,0,39.990276,-105.447024,0,2470.7,0,0,0,-0.2,-0.1,-175.6,AssistedTakeoff,10,Other,0,False,Ground,True,True,Standby,0,True,False,0,P,True,False,False,5,Smart,False,False,False,False,False,False,False,False,12,RC_AssistantTakeoff,9,None,0,Already,0,False,0,0,2.8,1,28,Spark,MonitorError,0,,0,RC,0,0,0,-176.2,YawFollow,2,0,0,0,False,16,False,False,False,True,False,1,False,False,False,58323,0,0,9288,0,0,0,P,False,0,0,0,0,0,0,0,0,,,,,100,3,,,4.189,4.197,4.191,,,,47220,2018/08/21,,,,,,,0,0,0,0,0,0,1041.534,None,0,NonGoHome,0,0,12.592,90,30,False,10,True,0,,,,,,,,,,,,,,,1,0,1,No,No,0,1,Normal,0,No,0,0,0,0,CheckSuccess,Record,31907,30438,10146,11068,0,FC1102,1,GoHome,True,False,True,39.99028,-105.447004,2470.65,True,1,1,False,False,False,True,4,False,0,False,False,False,CourseLock,30,-302.7,0,0,0,17,False,False,False,False,False,False,False,Normal,NonLimit,False,MotorOff,MotorOff,MotorOff,MotorOff,NonConnect,NonConnect,NonConnect,NonConnect,3,Spark,Android,4.3.0,0BMUF8400101P0,kestrel bean,2018/09/06 22:04:04,,,0C0AF8LB3303GU,Timeout,,,,,,2,1,1,1008,2018/09/07 17:36:38.274,39.990277,-105.447021,14.84,100.7,4.3,0,1,0,8,2470.65,Spark,2018/09/06 22:04:04,kestrel bean,0BMUF8400101P0,,,0C0AF8LB3303GU,Android,4.3.0,,,,,,
2018/09/07 17:36:41.051,,,0,0.31,,0,0.08,1.77,0.32,1.77,0,39.990276,-105.447024,0,2470.7,0,0,0,-0.9,0,-175.5,AssistedTakeoff,10,Other,0,False,Ground,True,True,Standby,0,True,False,0,P,True,False,False,5,Smart,False,False,False,False,False,False,False,False,12,RC_AssistantTakeoff,9,None,0,Already,0,False,0,0,2.9,1,28,Spark,MonitorError,0,,0,RC,0,0,0,-176.1,YawFollow,2,0,0,0,False,16,False,False,False,True,False,1,False,False,False,58423,0,0,7530,0,0,0,P,False,0,0,0,0,0,0,0,0,,,,,100,3,,,4.189,4.197,4.191,,,,47220,2018/08/21,,,,,,,0,0,0,0,0,0,1041.534,None,0,NonGoHome,0,0,12.592,90,30,False,10,True,0,,,,,,,,,,,,,,,1,0,1,No,No,0,1,Normal,0,No,0,0,0,0,CheckSuccess,Record,31907,30438,10146,11068,0,FC1102,1,GoHome,True,False,True,39.99028,-105.447004,2470.65,True,1,1,False,False,False,True,4,False,0,False,False,False,CourseLock,30,-302.7,0,0,0,17,False,False,False,False,False,False,False,Normal,NonLimit,False,MotorOff,MotorOff,MotorOff,MotorOff,NonConnect,NonConnect,NonConnect,NonConnect,3,Spark,Android,4.3.0,0BMUF8400101P0,kestrel bean,2018/09/06 22:04:04,,,0C0AF8LB3303GU,Timeout,,,,,,2,1,1,1008,2018/09/07 17:36:38.274,39.990277,-105.447021,14.84,100.7,4.3,0,1,0,8,2470.65,Spark,2018/09/06 22:04:04,kestrel bean,0BMUF8400101P0,,,0C0AF8LB3303GU,Android,4.3.0,,,,,,
2018/09/07 17:36:41.153,,,0,0.31,,0,0.09,1.77,0.33,1.77,0,39.990276,-105.447024,0,2470.7,0,0,-0.1,-0.9,0.2,-175.5,GPS_Atti,6,Other,0,False,Sky,True,True,Standby,0,True,False,0,P,True,False,False,5,Smart,False,False,False,False,False,False,False,False,12,None,0,None,0,Already,0,False,0,0,3,1,28,Spark,MonitorError,0,,0,RC,0,0,0,-176,YawFollow,2,0,0,0,False,16,False,False,False,True,False,1,False,False,False,58523,0,0,5652,0,0,0,P,False,0,0,0,0,0,0,0,0,,,,,100,3,,,4.175,4.178,4.167,,,,47220,2018/08/21,,,,,,,0,0,0,0,0,0,1041.534,None,0,NonGoHome,0,0,12.592,90,30,False,10,True,0,,,,,,,,,,,,,,,1,0,1,No,No,0,1,Normal,0,No,0,0,0,0,CheckSuccess,Record,31907,30438,10146,11068,0,FC1102,1,GoHome,True,False,True,39.99028,-105.447004,2470.65,True,1,1,False,False,False,True,4,False,0,False,False,False,CourseLock,30,-302.7,0,0,0,17,False,False,False,False,False,False,False,Normal,NonLimit,False,MotorOff,MotorOff,MotorOff,MotorOff,NonConnect,NonConnect,NonConnect,NonConnect,3,Spark,Android,4.3.0,0BMUF8400101P0,kestrel bean,2018/09/06 22:04:04,,,0C0AF8LB3303GU,Timeout,,,,,,2,1,1,1008,2018/09/07 17:36:38.274,39.990277,-105.447021,14.84,100.7,4.3,0,1,0,8,2470.65,Spark,2018/09/06 22:04:04,kestrel bean,0BMUF8400101P0,,,0C0AF8LB3303GU,Android,4.3.0,,,,,,
2018/09/07 17:36:41.357,,,0,0.33,,0,0.11,1.78,0.34,1.78,0,39.990276,-105.447024,0,2470.7,0,0,-0.2,-0.2,0.2,-175.5,GPS_Atti,6,Other,0,False,Sky,True,True,Standby,0,True,False,0,P,True,False,False,4,Smart,False,False,False,False,False,False,False,False,11,None,0,None,0,Already,0,False,0,0.1,3.1,1,28,Spark,MonitorError,0,,0,RC,0,0,0,-176.1,YawFollow,2,0,0,0,False,16,False,False,False,True,False,1,False,False,False,58623,0,0,5864,0,0,0,P,False,0,0,0,0,0,0,0,0,,,,,100,3,,,4.175,4.178,4.167,,,,47220,2018/08/21,,,,,,,0,0,0,0,0,0,1041.534,None,0,NonGoHome,0,0,12.592,90,30,False,10,True,0,,,,,,,,,,,,,,,1,0,1,No,No,0,1,Normal,0,No,0,0,0,0,CheckSuccess,Record,31907,30438,10146,11068,0,FC1102,1,GoHome,True,False,True,39.99028,-105.447004,2470.65,True,1,1,False,False,False,True,4,False,0,False,False,False,CourseLock,30,-302.7,0,0,0,17,False,False,False,False,False,False,False,Normal,NonLimit,False,MotorOff,MotorOff,MotorOff,MotorOff,NonConnect,NonConnect,NonConnect,NonConnect,3,Spark,Android,4.3.0,0BMUF8400101P0,kestrel bean,2018/09/06 22:04:04,,,0C0AF8LB3303GU,Timeout,,,,,,2,1,1,1008,2018/09/07 17:36:38.274,39.990277,-105.447021,14.84,100.7,4.3,0,1,0,8,2470.65,Spark,2018/09/06 22:04:04,kestrel bean,0BMUF8400101P0,,,0C0AF8LB3303GU,Android,4.3.0,,,,,,
2018/09/07 17:36:41.460,,,0,0.34,,0,0.06,1.79,0.35,1.79,0,39.990276,-105.447024,0,2470.7,0,0,-0.4,0.4,0.1,-175.5,GPS_Atti,6,Other,0,False,Sky,True,True,Standby,0,True,False,0,P,True,False,False,4,Smart,False,False,False,False,False,False,False,False,11,None,0,None,0,Already,0,False,0,0.1,3.2,1,28,Spark,MonitorError,0,,0,RC,0,0,0,-176.2,YawFollow,2,0,0,0,False,16,False,False,False,True,False,1,False,False,False,58723,0,0,5909,0,0,0,P,False,0,0,0,0,0,0,0,0,,,,,100,3,,,4.175,4.178,4.167,,,,47220,2018/08/21,,,,,,,0,0,0,0,0,0,1129.463,None,0,NonGoHome,0,0,12.46,90,30,False,10,True,0,,,,,,,,,,,,,,,1,0,1,No,No,0,1,Normal,0,No,0,0,0,0,CheckSuccess,Record,31907,30438,10146,11068,0,FC1102,1,GoHome,True,False,True,39.990276,-105.447024,2470.65,True,1,1,False,False,False,True,4,False,0,False,False,False,CourseLock,30,-302.7,0,0,0,17,False,False,False,False,False,False,False,Normal,NonLimit,False,MotorOff,MotorOff,MotorOff,MotorOff,NonConnect,NonConnect,NonConnect,NonConnect,3,Spark,Android,4.3.0,0BMUF8400101P0,kestrel bean,2018/09/06 22:04:04,,,0C0AF8LB3303GU,Timeout,,,,,,2,1,1,1008,2018/09/07 17:36:38.274,39.990277,-105.447021,14.84,100.7,4.3,0,1,0,8,2470.65,Spark,2018/09/06 22:04:04,kestrel bean,0BMUF8400101P0,,,0C0AF8LB3303GU,Android,4.3.0,,,,Home Point recorded. Return-to-Home Altitude:98FT,,
2018/09/07 17:36:41.460,,,0,0.34,,0,0.14,0.04,0.36,1.79,0.1,39.990276,-105.447024,0.1,2470.8,0,0,-0.3,0.5,0,-175.4,GPS_Atti,6,Other,0,False,Sky,True,True,Standby,0,True,False,0,P,True,False,False,4,Smart,False,False,False,False,False,False,False,False,12,None,0,None,0,Already,0,False,0,0.1,3.3,1,28,Spark,MonitorError,0,,0,RC,0,0,0,-176.1,YawFollow,2,0,0,0,False,16,False,False,False,True,False,1,False,False,False,58824,0,0,6212,0,0,0,P,False,0,0,0,0,0,0,0,0,,,,,100,3,,,4.175,4.178,4.167,,,,47220,2018/08/21,,,,,,,0,0,0,0,0,0,1129.463,None,0,NonGoHome,0,0,12.46,90,30,False,10,True,0,,,,,,,,,,,,,,,1,0,1,No,No,0,1,Normal,0,No,0,0,0,0,CheckSuccess,Record,31907,30438,10146,11068,0,FC1102,1,GoHome,True,False,True,39.990276,-105.447024,2470.65,True,1,1,False,False,False,True,4,False,0,False,False,False,CourseLock,30,-302.7,0,0,0,17,False,False,False,False,False,False,False,Normal,NonLimit,False,MotorOff,MotorOff,MotorOff,MotorOff,NonConnect,NonConnect,NonConnect,NonConnect,3,Spark,Android,4.3.0,0BMUF8400101P0,kestrel bean,2018/09/06 22:04:04,,,0C0AF8LB3303GU,Timeout,,,,,,2,1,1,1008,2018/09/07 17:36:38.274,39.990277,-105.447021,14.84,100.7,4.3,0,1,0,8,2470.65,Spark,2018/09/06 22:04:04,kestrel bean,0BMUF8400101P0,,,0C0AF8LB3303GU,Android,4.3.0,,,,,,
2018/09/07 17:36:41.562,,,0,0.37,,0,0,0.06,0.38,1.79,0.1,39.990275,-105.447024,0.1,2470.8,0,0,-0.3,0.2,0,-175.4,GPS_Atti,6,Other,0,False,Sky,True,True,Standby,0,True,False,0,P,True,False,False,4,Smart,False,False,False,False,False,False,False,False,12,None,0,None,0,Already,0,False,0,0.1,3.4,1,28,Spark,MonitorError,0,,0,RC,0,0,0,-176.1,YawFollow,2,0,0,0,False,16,False,False,False,True,False,1,False,False,False,58924,0,0,7106,0,0,0,P,False,0,0,0,0,0,0,0,0,,,,,100,3,,,4.175,4.178,4.167,,,,47220,2018/08/21,,,,,,,0,0,0,0,0,0,1129.463,None,0,NonGoHome,0,0,12.46,90,30,False,10,True,0,,,,,,,,,,,,,,,1,0,1,No,No,0,1,Normal,0,No,0,0,0,0,CheckSuccess,Record,31907,30438,10146,11068,0,FC1102,1,GoHome,True,False,True,39.990276,-105.447024,2470.65,True,1,1,False,False,False,True,4,False,0,False,False,False,CourseLock,30,-302.7,0,0,0,17,False,False,False,False,False,False,False,Normal,NonLimit,False,MotorOff,MotorOff,MotorOff,MotorOff,NonConnect,NonConnect,NonConnect,NonConnect,3,Spark,Android,4.3.0,0BMUF8400101P0,kestrel bean,2018/09/06 22:04:04,,,0C0AF8LB3303GU,Timeout,,,,,,2,1,1,1008,2018/09/07 17:36:38.274,39.990277,-105.447021,14.84,100.7,4.3,0,1,0,8,2470.65,Spark,2018/09/06 22:04:04,kestrel bean,0BMUF8400101P0,,,0C0AF8LB3303GU,Android,4.3.0,,,,,,
2018/09/07 17:36:41.664,,,0,0.38,,0,0.15,0.07,0.39,1.79,0.1,39.990275,-105.447024,0.1,2470.8,0,0,-0.3,0,-0.1,-175.4,GPS_Atti,6,Other,0,False,Sky,True,True,Standby,0,True,False,0,P,True,False,False,4,Smart,False,False,False,False,False,False,False,False,12,None,0,None,0,Already,0,False,0,0.2,3.5,1,28,Spark,MonitorError,0,,0,RC,0,0,0,-176.2,YawFollow,2,0,0,0,False,16,False,False,False,True,False,1,False,False,False,59024,0,0,7879,0,0,0,P,False,0,0,0,0,0,0,0,0,,,,,100,3,,,4.175,4.178,4.167,,,,47220,2018/08/21,,,,,,,0,0,0,0,0,0,1129.463,None,0,NonGoHome,0,0,12.46,90,30,False,10,True,0,,,,,,,,,,,,,,,1,0,1,No,No,0,1,Normal,0,No,0,0,0,0,CheckSuccess,Record,31907,30438,10146,11068,0,FC1102,1,GoHome,True,False,True,39.990276,-105.447024,2470.65,True,1,1,False,False,False,True,4,False,0,False,False,False,CourseLock,30,-302.7,0,0,0,17,False,False,False,False,False,False,False,Normal,NonLimit,False,MotorOff,MotorOff,MotorOff,MotorOff,NonConnect,NonConnect,NonConnect,NonConnect,3,Spark,Android,4.3.0,0BMUF8400101P0,kestrel bean,2018/09/06 22:04:04,,,0C0AF8LB3303GU,Timeout,,,,,,2,1,1,1008,2018/09/07 17:36:38.274,39.990277,-105.447021,14.84,100.7,4.3,0,1,0,8,2470.65,Spark,2018/09/06 22:04:04,kestrel bean,0BMUF8400101P0,,,0C0AF8LB3303GU,Android,4.3.0,,,,,,
2018/09/07 17:36:41.767,,,0,0.4,,0,0.14,0.09,0.41,1.79,0.1,39.990275,-105.447025,0.1,2470.8,0,0,-0.3,0,-0.1,-175.5,GPS_Atti,6,Other,0,False,Sky,True,True,Standby,0,True,False,0,P,True,False,False,4,Smart,False,False,False,False,False,False,False,False,12,None,0,None,0,Already,0,False,0,0.2,3.6,1,28,Spark,MonitorError,0,,0,RC,0,0,0,-176.2,YawFollow,2,0,0,0,False,16,False,False,False,True,False,1,False,False,False,59124,0,0,7439,0,0,0,P,False,0,0,0,0,0,0,0,0,,,,,100,3,,,4.175,4.178,4.167,,,,47220,2018/08/21,,,,,,,0,0,0,0,0,0,1129.463,None,0,NonGoHome,0,0,12.46,90,30,False,10,True,0,,,,,,,,,,,,,,,1,0,1,No,No,0,1,Normal,0,No,0,0,0,0,CheckSuccess,Record,31907,30438,10146,11068,0,FC1102,1,GoHome,True,False,True,39.990276,-105.447024,2470.65,True,1,1,False,False,False,True,4,False,0,False,False,False,CourseLock,30,-302.7,0,0,0,17,False,False,False,False,False,False,False,Normal,NonLimit,False,MotorOff,MotorOff,MotorOff,MotorOff,NonConnect,NonConnect,NonConnect,NonConnect,3,Spark,Android,4.3.0,0BMUF8400101P0,kestrel bean,2018/09/06 22:04:04,,,0C0AF8LB3303GU,Timeout,,,,,,2,1,1,1008,2018/09/07 17:36:38.274,39.990277,-105.447021,14.84,100.7,4.3,0,1,0,8,2470.65,Spark,2018/09/06 22:04:04,kestrel bean,0BMUF8400101P0,,,0C0AF8LB3303GU,Android,4.3.0,,,,,,
2018/09/07 17:36:41.970,,,0,0.41,,0,0.11,0.09,0.42,1.79,0.2,39.990275,-105.447025,0.2,2470.9,0,0,-0.4,-0.1,-0.1,-175.4,GPS_Atti,6,Other,0,False,Sky,True,True,Standby,0,True,False,0,P,True,False,False,4,Smart,False,False,False,False,False,False,False,False,11,None,0,None,0,Already,0,False,0,0.2,3.7,1,28,Spark,MonitorError,0,,0,RC,0,0,0,-176.2,YawFollow,2,0,0,0,False,16,False,False,False,True,False,1,False,False,False,59224,0,0,7333,0,0,0,P,False,0,0,0,0,0,0,0,0,,,,,100,3,,,4.175,4.178,4.167,,,,47220,2018/08/21,,,,,,,0,0,0,0,0,0,1129.463,None,0,NonGoHome,0,0,12.46,90,30,False,10,True,0,,,,,,,,,,,,,,,1,0,1,No,No,0,1,Normal,0,No,0,0,0,0,CheckSuccess,Record,31907,30438,10146,11068,0,FC1102,1,GoHome,True,False,True,39.990276,-105.447024,2470.65,True,1,1,False,False,False,True,4,False,0,False,False,False,CourseLock,30,-302.7,0,0,0,17,False,False,False,False,False,False,False,Normal,NonLimit,False,MotorOff,MotorOff,MotorOff,MotorOff,NonConnect,NonConnect,NonConnect,NonConnect,3,Spark,Android,4.3.0,0BMUF8400101P0,kestrel bean,2018/09/06 22:04:04,,,0C0AF8LB3303GU,Timeout,,,,,,2,1,1,1008,2018/09/07 17:36:38.274,39.990277,-105.447021,14.84,100.7,4.3,0,1,0,8,2470.65,Spark,2018/09/06 22:04:04,kestrel bean,0BMUF8400101P0,,,0C0AF8LB3303GU,Android,4.3.0,,,,,,
2018/09/07 17:36:42.072,,,0,0.42,,0,0.05,0.1,0.43,1.79,0.2,39.990275,-105.447025,0.2,2470.9,0,0,-0.6,-0.2,-0.2,-175.4,GPS_Atti,6,Other,0,False,Sky,True,True,Standby,0,True,False,0,P,True,False,False,4,Smart,False,False,False,False,False,False,False,False,11,None,0,None,0,Already,0,False,0,0.3,3.8,1,28,Spark,MonitorError,0,,0,RC,0,0,0,-176.1,YawFollow,2,0,0,0,False,16,False,False,False,True,False,1,False,False,False,59323,0,0,6742,0,0,0,P,False,0,0,0,0,0,0,0,0,,,,,100,3,,,4.175,4.178,4.167,,,,47220,2018/08/21,,,,,,,0,0,0,0,0,0,1129.463,None,0,NonGoHome,0,0,12.46,90,30,False,10,True,0,,,,,,,,,,,,,,,1,0,1,No,No,0,1,Normal,0,No,0,0,0,0,CheckSuccess,Record,31907,30438,10146,11068,0,FC1102,1,GoHome,True,False,True,39.990276,-105.447024,2470.65,True,1,1,False,False,False,True,4,False,0,False,False,False,CourseLock,30,-302.7,0,0,0,17,False,False,False,False,False,False,False,Normal,NonLimit,False,MotorOff,MotorOff,MotorOff,MotorOff,NonConnect,NonConnect,NonConnect,NonConnect,3,Spark,Android,4.3.0,0BMUF8400101P0,kestrel bean,2018/09/06 22:04:04,,,0C0AF8LB3303GU,Timeout,,,,,,2,1,1,1008,2018/09/07 17:36:38.274,39.990277,-105.447021,14.84,100.7,4.3,0,1,0,8,2470.65,Spark,2018/09/06 22:04:04,kestrel bean,0BMUF8400101P0,,,0C0AF8LB3303GU,Android,4.3.0,,,,,,
2018/09/07 17:36:42.175,,,0,0.43,,0,0.08,0.1,0.44,1.79,0.3,39.990275,-105.447025,0.3,2471,0,0,-0.8,-0.3,-0.4,-175.4,GPS_Atti,6,Other,0,False,Sky,True,True,Standby,0,True,False,0,P,True,False,False,4,Smart,False,False,False,False,False,False,False,False,10,None,0,None,0,Already,0,False,0,0.3,3.9,1,28,Spark,MonitorError,0,,0,RC,0,0,0,-176.1,YawFollow,2,0,0,0,False,16,False,False,False,True,False,1,False,False,False,59423,0,0,4076,0,0,0,P,False,0,0,0,0,0,0,0,0,,,,,100,3,,,4.175,4.178,4.167,,,,47220,2018/08/21,,,,,,,0,0,0,0,0,0,1129.463,None,0,NonGoHome,0,0,12.46,90,30,False,10,True,0,,,,,,,,,,,,,,,1,0,1,No,No,0,1,Normal,0,No,0,0,0,0,CheckSuccess,Record,31907,30438,10146,11068,0,FC1102,1,GoHome,True,False,True,39.990276,-105.447024,2470.65,True,1,1,False,False,False,True,4,False,0,False,False,False,CourseLock,30,-302.7,0,0,0,17,False,False,False,False,False,False,False,Normal,NonLimit,False,MotorOff,MotorOff,MotorOff,MotorOff,NonConnect,NonConnect,NonConnect,NonConnect,3,Spark,Android,4.3.0,0BMUF8400101P0,kestrel bean,2018/09/06 22:04:04,,,0C0AF8LB3303GU,Timeout,,,,,,2,1,1,1008,2018/09/07 17:36:38.274,39.990277,-105.447021,14.84,100.7,4.3,0,1,0,8,2470.65,Spark,2018/09/06 22:04:04,kestrel bean,0BMUF8400101P0,,,0C0AF8LB3303GU,Android,4.3.0,,,,,,
2018/09/07 17:36:42.276,,,0,0.43,,0,0.08,0.11,0.45,1.79,0.4,39.990275,-105.447025,0.4,2471.1,0,0,-0.9,0.1,-0.5,-175.4,GPS_Atti,6,Other,0,False,Sky,True,True,Standby,0,True,False,0,P,True,False,False,4,Smart,False,False,False,False,False,False,False,False,10,None,0,None,0,Already,0,False,0,0.4,4,1,28,Spark,MonitorError,0,,0,RC,0,0,0,-176.1,YawFollow,2,0,0,0,False,16,False,False,False,True,False,1,False,False,False,59523,0,0,0,0,0,0,P,False,0,0,0,0,0,0,0,0,,,,,100,3,,,4.118,4.12,4.1,,,,47220,2018/08/21,,,,,,,0,0,0,0,0,0,1129.463,None,0,NonGoHome,0,0,12.46,90,30,False,10,True,0,,,,,,,,,,,,,,,1,0,1,No,No,0,1,Normal,0,No,0,0,0,0,CheckSuccess,Record,31907,30438,10146,11068,0,FC1102,1,GoHome,True,False,True,39.990276,-105.447024,2470.65,True,1,1,False,False,False,True,4,False,0,False,False,False,CourseLock,30,-302.7,0,0,0,17,False,False,False,False,False,False,False,Normal,NonLimit,False,MotorOff,MotorOff,MotorOff,MotorOff,NonConnect,NonConnect,NonConnect,NonConnect,3,Spark,Android,4.3.0,0BMUF8400101P0,kestrel bean,2018/09/06 22:04:04,,,0C0AF8LB3303GU,Timeout,3.2.43,,,,,2,1,1,1008,2018/09/07 17:36:38.274,39.990277,-105.447021,14.84,100.7,4.3,0,1,0,8,2470.65,Spark,2018/09/06 22:04:04,kestrel bean,0BMUF8400101P0,,,0C0AF8LB3303GU,Android,4.3.0,,,,,,
2018/09/07 17:36:42.379,,,0,0.45,,0,0.17,0.13,0.46,1.79,0.5,39.990275,-105.447025,0.5,2471.2,0,0,-1,0.5,-0.5,-175.4,GPS_Atti,6,Other,0,False,Sky,True,True,Standby,0,True,False,0,P,True,False,False,4,Smart,False,False,False,False,False,False,False,False,10,None,0,None,0,Already,0,False,0,0.5,4.1,1,28,Spark,MonitorError,0,,0,RC,0,0,0,-176,YawFollow,2,0,0,0,False,16,False,False,False,True,False,1,False,False,False,59622,0,0,0,0,0,0,P,False,0,0,0,0,0,0,0,0,,,,,100,3,,,4.118,4.12,4.1,,,,47220,2018/08/21,,,,,,,0,0,0,0,0,0,1129.463,None,0,NonGoHome,0,0,12.46,90,30,False,10,True,0,,,,,,,,,,,,,,,1,0,1,No,No,0,1,Normal,0,No,0,0,0,0,CheckSuccess,Record,31907,30438,10146,11068,0,FC1102,1,GoHome,True,False,True,39.990276,-105.447024,2470.65,True,1,1,False,False,False,True,4,False,0,False,False,False,CourseLock,30,-302.7,0,0,0,17,False,False,False,False,False,False,False,Normal,NonLimit,False,MotorOff,MotorOff,MotorOff,MotorOff,NonConnect,NonConnect,NonConnect,NonConnect,3,Spark,Android,4.3.0,0BMUF8400101P0,kestrel bean,2018/09/06 22:04:04,,,0C0AF8LB3303GU,Timeout,3.2.43,,,,,2,1,1,1008,2018/09/07 17:36:38.274,39.990277,-105.447021,14.84,100.7,4.3,0,1,0,8,2470.65,Spark,2018/09/06 22:04:04,kestrel bean,0BMUF8400101P0,,,0C0AF8LB3303GU,Android,4.3.0,,,,,,
2018/09/07 17:36:42.484,,,0,0.47,,0,0.19,0.15,0.48,1.79,0.6,39.990275,-105.447025,0.6,2471.3,0,0,-0.9,0.4,-0.2,-175.5,GPS_Atti,6,Other,0,False,Sky,True,True,Standby,0,True,False,0,P,True,False,False,4,Smart,False,False,False,False,False,False,False,False,10,None,0,None,0,Already,0,False,0,0.6,4.2,1,28,Spark,MonitorError,0,,0,RC,0,0,0,-175.9,YawFollow,2,0,0,0,False,16,False,False,False,True,False,1,False,False,False,59723,0,0,0,0,0,0,P,False,0,0,0,0,0,0,0,0,,,,,100,3,,,4.118,4.12,4.1,,,,47220,2018/08/21,,,,,,,0,0,0,0,0,0,1329.295,None,0,NonGoHome,0,0,12.413,90,30,False,10,True,0,,,,,,,,,,,,,,,1,0,1,No,No,0,1,Normal,0,No,0,0,0,0,CheckSuccess,Record,31907,30438,10146,11068,0,FC1102,1,GoHome,True,False,True,39.990276,-105.447024,2470.65,True,1,1,False,False,False,True,4,False,0,False,False,False,CourseLock,30,-302.7,0,0,0,17,False,False,False,False,False,False,False,Normal,NonLimit,False,MotorOff,MotorOff,MotorOff,MotorOff,NonConnect,NonConnect,NonConnect,NonConnect,3,Spark,Android,4.3.0,0BMUF8400101P0,kestrel bean,2018/09/06 22:04:04,,,0C0AF8LB3303GU,Timeout,3.2.43,,,,,2,1,1,1008,2018/09/07 17:36:38.274,39.990277,-105.447021,14.84,100.7,4.3,0,1,0,8,2470.65,Spark,2018/09/06 22:04:04,kestrel bean,0BMUF8400101P0,,,0C0AF8LB3303GU,Android,4.3.0,,,,,,
